[
    {
        "name": "Acadia National Park",
        "coordiantes": {
            "longitude": -68.24411197733804,
            "latitude": 44.350751388328206
        }
    },
    {
        "name": "Arches National Park",
        "coordiantes": {
            "longitude": -109.59545602760868,
            "latitude": 38.707917632251544
        }
    },
    {
        "name": "Badlands National Park",
        "coordiantes": {
            "longitude": -102.39394509554067,
            "latitude": 43.8340624087368
        }
    },
    {
        "name": "Big Bend National Park",
        "coordiantes": {
            "longitude": -103.22978967302261,
            "latitude": 29.298177668897967
        }
    },
    {
        "name": "Biscayne National Park",
        "coordiantes": {
            "longitude": -80.21830159269447,
            "latitude": 25.469689246647114
        }
    },
    {
        "name": "Black Canyon Of The Gunnison National Park",
        "coordiantes": {
            "longitude": -107.72398016641485,
            "latitude": 38.577392252894334
        }
    },
    {
        "name": "Bryce Canyon National Park",
        "coordiantes": {
            "longitude": -112.18266888744083,
            "latitude": 37.58399143875251
        }
    },
    {
        "name": "Canyonlands National Park",
        "coordiantes": {
            "longitude": -109.88314625527481,
            "latitude": 38.272072876214835
        }
    },
    {
        "name": "Capital Reef National Park",
        "coordiantes": {
            "longitude": -111.00329294577273,
            "latitude": 37.795992535017426
        }
    },
    {
        "name": "Carlsbad Caverns National Park",
        "coordiantes": {
            "longitude": -104.52776563457927,
            "latitude": 32.15234275399143
        }
    },
    {
        "name": "Channel Islands National Park",
        "coordiantes": {
            "longitude": -119.7251698451474,
            "latitude": 34.00392978229205
        }
    },
    {
        "name": "Congaree National Park",
        "coordiantes": {
            "longitude": -80.81835232616444,
            "latitude": 33.8062043146765
        }
    },
    {
        "name": "Crater Lake National Park",
        "coordiantes": {
            "longitude": -122.13525870459277,
            "latitude": 42.94443605194011
        }
    },
    {
        "name": "Cuyahoga Valley National Park",
        "coordiantes": {
            "longitude": -81.5690344075238,
            "latitude": 41.26071335500069
        }
    },
    {
        "name": "Death Valley National Park",
        "coordiantes": {
            "longitude": -117.13511154435771,
            "latitude": 36.48741910067162
        }
    },
    {
        "name": "Denali National Park & Preserve",
        "coordiantes": {
            "longitude": -151.05263550282112,
            "latitude": 63.29777436004586
        }
    },
    {
        "name": "Dry Tortugas National Park",
        "coordiantes": {
            "longitude": -82.86655423155601,
            "latitude": 24.654395618647623
        }
    },
    {
        "name": "Everglades National Park",
        "coordiantes": {
            "longitude": -80.95349638622787,
            "latitude": 25.27225616404826
        }
    },
    {
        "name": "Gates Of The Arctic National Park & Preserve",
        "coordiantes": {
            "longitude": -153.26413231698794,
            "latitude": 67.9192854407937
        }
    },
    {
        "name": "Glacier Bay National Park & Preserve",
        "coordiantes": {
            "longitude": -136.84071732838277,
            "latitude": 58.80086474447531
        }
    },
    {
        "name": "Glacier National Park",
        "coordiantes": {
            "longitude": -113.80079159548487,
            "latitude": 48.68426876066877
        }
    },
    {
        "name": "Grand Canyon National Park",
        "coordiantes": {
            "longitude": -112.19586332050201,
            "latitude": 36.186683141213514
        }
    },
    {
        "name": "Grand Teton National Park",
        "coordiantes": {
            "longitude": -110.70546656038158,
            "latitude": 43.81853565368195
        }
    },
    {
        "name": "Great Basin National Park",
        "coordiantes": {
            "longitude": -114.25797817448695,
            "latitude": 38.946173783127065
        }
    },
    {
        "name": "Great Sand Dunes National Park & Preserve",
        "coordiantes": {
            "longitude": -105.57832630519154,
            "latitude": 37.759942701007226
        }
    },
    {
        "name": "Great Smoky Mountains National Park",
        "coordiantes": {
            "longitude": -83.77104780772574,
            "latitude": 35.53381126341195
        }
    },
    {
        "name": "Guadalupe Mountains National Park",
        "coordiantes": {
            "longitude": -104.88434717034703,
            "latitude": 31.923384209391674
        }
    },
    {
        "name": "Haleakalā National Park",
        "coordiantes": {
            "longitude": -156.14709314319208,
            "latitude": 20.704512129332194
        }
    },
    {
        "name": "Hawaiʻi Volcanoes National Park",
        "coordiantes": {
            "longitude": -155.2118228719388,
            "latitude": 19.32614215615518
        }
    },
    {
        "name": "Hot Springs National Park",
        "coordiantes": {
            "longitude": -93.08972185108273,
            "latitude": 34.51113822506357
        }
    },
    {
        "name": "Isle Royale National Park",
        "coordiantes": {
            "longitude": -89.10441847731086,
            "latitude": 47.900839582369585
        }
    },
    {
        "name": "Joshua Tree National Park",
        "coordiantes": {
            "longitude": -116.15907084356105,
            "latitude": 33.98096522850808
        }
    },
    {
        "name": "Katmai National Park & Preserve",
        "coordiantes": {
            "longitude": -155.01341050350874,
            "latitude": 58.622573966764584
        }
    },
    {
        "name": "Kenai Fjords National Park",
        "coordiantes": {
            "longitude": -149.88152448868524,
            "latitude": 59.95389688763184
        }
    },
    {
        "name": "Kings Canyon National Park",
        "coordiantes": {
            "longitude": -118.59384064032848,
            "latitude": 36.8749421087923
        }
    },
    {
        "name": "Kobuk Valley National Park",
        "coordiantes": {
            "longitude": -159.06308334658615,
            "latitude": 67.28263652770183
        }
    },
    {
        "name": "Lake Clark National Park & Preserve",
        "coordiantes": {
            "longitude": -153.6018441528228,
            "latitude": 60.64679690935658
        }
    },
    {
        "name": "Lassen Volcanic National Park",
        "coordiantes": {
            "longitude": -121.41212664904383,
            "latitude": 40.48622026090819
        }
    },
    {
        "name": "Mammoth Cave National Park",
        "coordiantes": {
            "longitude": -86.13090198191068,
            "latitude": 37.197604576779035
        }
    },
    {
        "name": "Mesa Verde National Park",
        "coordiantes": {
            "longitude": -108.50092888589481,
            "latitude": 37.22351315320654
        }
    },
    {
        "name": "Mount Rainier National Park",
        "coordiantes": {
            "longitude": -121.70574507946985,
            "latitude": 46.86055919903173
        }
    },
    {
        "name": "National Park of American Samoa",
        "coordiantes": {
            "longitude": -169.45380760526996,
            "latitude": -14.239727732693918
        }
    },
    {
        "name": "North Cascades National Park",
        "coordiantes": {
            "longitude": -121.34755778363238,
            "latitude": 48.83303940981537
        }
    },
    {
        "name": "Olympic National Park",
        "coordiantes": {
            "longitude": -123.6194451629227,
            "latitude": 47.79453520449651
        }
    },
    {
        "name": "Petrified Forest National Park",
        "coordiantes": {
            "longitude": -109.67471774572405,
            "latitude": 34.98868180401879
        }
    },
    {
        "name": "Rocky Mountain National Park",
        "coordiantes": {
            "longitude": -105.69838532231373,
            "latitude": 40.35579839722149
        }
    },
    {
        "name": "Saguaro National Park",
        "coordiantes": {
            "longitude": -110.60831406159426,
            "latitude": 32.178836085393556
        }
    },
    {
        "name": "Sequoia & Kings Canyon National Parks",
        "coordiantes": {
            "longitude": -118.5752011004094,
            "latitude": 36.50785282265928
        }
    },
    {
        "name": "Shenandoah National Park",
        "coordiantes": {
            "longitude": -78.67619962877342,
            "latitude": 38.28108210674896
        }
    },
    {
        "name": "Theodore Roosevelt National Park",
        "coordiantes": {
            "longitude": -103.45925080636415,
            "latitude": 46.953620966658086
        }
    },
    {
        "name": "Virgin Islands National Park",
        "coordiantes": {
            "longitude": -64.77111048899694,
            "latitude": 18.353798617233704
        }
    },
    {
        "name": "Voyageurs National Park",
        "coordiantes": {
            "longitude": -92.98057129969759,
            "latitude": 48.51716932219992
        }
    },
    {
        "name": "Wind Cave National Park",
        "coordiantes": {
            "longitude": -103.42877641689412,
            "latitude": 43.60787178123641
        }
    },
    {
        "name": "Wolf Trap National Park for the Performing Arts",
        "coordiantes": {
            "longitude": -77.26355410163892,
            "latitude": 38.93793199647512
        }
    },
    {
        "name": "Wrangell–St Elias National Park & Preserve",
        "coordiantes": {
            "longitude": -142.60357111369407,
            "latitude": 61.41843937955613
        }
    },
    {
        "name": "Yellowstone National Park",
        "coordiantes": {
            "longitude": -110.49008302275851,
            "latitude": 44.583032217213656
        }
    },
    {
        "name": "Yosemite National Park",
        "coordiantes": {
            "longitude": -119.55600729459782,
            "latitude": 37.84893656911814
        }
    },
    {
        "name": "Zion National Park",
        "coordiantes": {
            "longitude": -112.95443162869537,
            "latitude": 37.255709497131065
        }
    },
    {
        "name": "Gateway Arch National Park",
        "coordiantes": {
            "longitude": -90.1857939618164,
            "latitude": 38.625143035481344
        }
    },
    {
        "name": "Indiana Dunes National Park",
        "coordiantes": {
            "longitude": -87.05243146934447,
            "latitude": 41.654384302554455
        }
    },
    {
        "name": "New River Gorge National Park",
        "coordiantes": {
            "longitude": -81.0514289750282,
            "latitude": 37.87534462108355
        }
    },
    {
        "name": "Pinnacles National Park",
        "coordiantes": {
            "longitude": -121.17987431816847,
            "latitude": 36.49510423649378
        }
    },
    {
        "name": "Redwood National Park",
        "coordiantes": {
            "longitude": -124.0327795204255,
            "latitude": 41.408483998552235
        }
    },
    {
        "name": "White Sands National Park",
        "coordiantes": {
            "longitude": -106.32159655948601,
            "latitude": 32.800789133820935
        }
    }
]